City,Country,Date,Lat,Lng,Cloudiness (%),Humidity (%),Max Temp (F),Wind Speed (mph)
Isabela,PH,1610622816,6.7085,121.9711,40,78,82.4,3.44
Lebu,CL,1610622816,-37.6167,-73.65,4,85,52.77,13.02
Hermanus,ZA,1610622817,-34.4187,19.2345,27,56,90.0,1.01
Jamestown,US,1610622804,42.097,-79.2353,90,80,37.0,8.05
Saint Paul Harbor,US,1610622817,57.79,-152.4072,90,75,37.4,17.27
Punta Arenas,CL,1610622704,-53.15,-70.9167,90,87,50.0,8.05
Hong Kong,HK,1610622549,22.2855,114.1577,18,50,61.0,4.41
Kisi,NG,1610622818,9.0833,3.85,3,10,91.99,7.36
Tambacounda,SN,1610622818,13.7539,-13.7586,0,11,87.8,11.5
Asău,RO,1610622818,46.4333,26.4,100,43,36.0,6.31
Princeton,US,1610622819,25.5384,-80.4089,90,77,62.6,3.44
Kilindoni,TZ,1610622819,-7.9139,39.6668,88,77,81.55,13.4
Zhigansk,RU,1610622819,66.7697,123.3711,51,79,-40.9,9.48
Salalah,OM,1610622820,17.0151,54.0924,0,14,86.0,14.97
San Patricio,US,1610622820,28.017,-97.5169,1,93,48.2,8.05
Rāzole,IN,1610622820,16.4833,81.8333,96,54,86.0,9.22
Talara,PE,1610622820,-4.5772,-81.2719,100,76,72.41,9.69
Bluff,NZ,1610622820,-46.6,168.3333,4,94,59.0,10.0
Mahébourg,MU,1610622821,-20.4081,57.7,20,65,84.2,12.66
Tabou,CI,1610622821,4.423,-7.3528,94,72,82.9,5.82
Ambunti,PG,1610622821,-4.2365,142.8448,89,95,76.62,1.68
Rikitea,PF,1610622821,-23.1203,-134.9692,92,76,77.2,10.13
Port Elizabeth,ZA,1610622822,-33.918,25.5701,75,83,75.2,20.71
Ushuaia,AR,1610622808,-54.8,-68.3,90,71,46.4,10.36
Provideniya,RU,1610622822,64.3833,-173.3,99,89,-0.4,7.58
Chui,UY,1610622822,-33.6971,-53.4616,0,55,69.53,9.57
Kandrian,PG,1610622822,-6.2167,149.55,100,82,81.37,5.68
Kruisfontein,ZA,1610622823,-34.0033,24.7314,52,61,88.0,8.99
Oriental,MX,1610622823,19.3667,-97.6167,78,87,47.84,1.9
Cape Town,ZA,1610622566,-33.9258,18.4232,0,40,90.0,4.61
Lompoc,US,1610622823,34.6391,-120.4579,1,76,64.4,5.75
Husavik,IS,1610622823,66.0449,-17.3389,0,75,35.6,8.05
Bethel,US,1610622824,41.3712,-73.414,90,86,33.01,3.29
Mataura,NZ,1610622706,-46.1927,168.8643,34,94,59.0,10.0
Gympie,AU,1610622600,-26.1898,152.665,0,85,73.0,2.48
Gaffney,US,1610622824,35.0718,-81.6498,3,92,37.0,2.53
Mogadishu,SO,1610622825,2.0371,45.3438,7,64,81.34,22.39
Rørvik,NO,1610622825,64.8621,11.2373,20,93,17.6,3.44
Zaozyornoye,UA,1610622825,45.1582,33.2787,90,72,39.76,4.59
Poum,NC,1610622825,-20.2333,164.0167,100,92,78.71,16.2
Puerto del Rosario,ES,1610622825,28.5004,-13.8627,40,59,66.2,14.97
Arraial do Cabo,BR,1610622826,-22.9661,-42.0278,20,74,80.6,18.41
Churapcha,RU,1610622827,62.0025,132.4325,67,76,-46.68,2.66
Necochea,AR,1610622827,-38.5473,-58.7368,0,82,63.0,16.04
Kyzyl-Suu,KG,1610622827,42.3414,78.0056,11,88,28.76,2.46
Tiksi,RU,1610622827,71.6872,128.8694,77,84,-35.77,3.47
Lavrentiya,RU,1610622828,65.5833,-171.0,97,91,0.82,3.33
Albany,US,1610622707,42.6001,-73.9662,98,74,34.0,1.88
Severo-Kuril'sk,RU,1610622828,50.6789,156.125,100,88,22.91,13.56
Weatherford,US,1610622819,32.7593,-97.7972,73,57,48.99,1.99
Virginia Beach,US,1610622828,36.8529,-75.978,90,75,42.8,8.19
Port Hardy,CA,1610622829,50.6996,-127.4199,90,81,42.8,12.66
Āgaro,ET,1610622829,7.85,36.65,77,29,84.58,2.1
Bredasdorp,ZA,1610622829,-34.5322,20.0403,40,65,78.8,17.27
Southbridge,US,1610622829,42.0751,-72.0334,100,76,30.99,4.85
Marsá Maţrūḩ,EG,1610622829,31.3525,27.2453,20,52,64.4,25.32
Varhaug,NO,1610622830,58.6147,5.6457,0,74,24.8,3.44
Vaini,TO,1610622707,-21.2,-175.2,20,94,78.8,4.61
Demirci,TR,1610622830,39.0461,28.6589,82,77,37.81,6.42
Katherine,AU,1610622606,-14.4667,132.2667,91,89,80.6,2.8
Alihe,CN,1610622831,50.5667,123.7167,2,83,-10.8,2.04
Souillac,MU,1610622831,-20.5167,57.5167,20,65,84.2,12.66
Shache,CN,1610622831,38.4167,77.2406,0,40,45.64,2.26
Bengkulu,ID,1610622831,-3.8004,102.2655,69,74,81.99,3.02
Guayabetal,CO,1610622831,4.2147,-73.8172,40,93,39.2,4.61
Hobart,AU,1610622832,-42.8794,147.3294,75,94,59.0,4.61
Busselton,AU,1610622704,-33.65,115.3333,48,50,73.99,1.01
Tokoroa,NZ,1610622684,-38.2333,175.8667,22,75,61.0,2.06
Saskylakh,RU,1610622832,71.9167,114.0833,49,74,-47.24,6.76
Roebourne,AU,1610622833,-20.7833,117.1333,1,24,100.89,13.02
Coyhaique,CL,1610622833,-45.5752,-72.0662,0,87,46.4,6.91
Teya,RU,1610622833,60.3778,92.6267,100,88,1.87,12.8
Tasiilaq,GL,1610622833,65.6145,-37.6368,90,80,35.6,11.86
Ferme-Neuve,CA,1610622834,46.7001,-75.4493,96,93,28.4,0.54
Yumen,CN,1610622834,40.2833,97.2,87,75,25.16,15.43
East London,ZA,1610622834,-33.0153,27.9116,90,100,71.6,14.97
Khatanga,RU,1610622834,71.9667,102.5,85,78,-46.1,7.34
Thompson,CA,1610622834,55.7435,-97.8558,90,100,26.6,4.61
Progreso,MX,1610622835,21.2833,-89.6667,40,100,66.0,11.32
Cabo San Lucas,MX,1610622835,22.8909,-109.9124,28,49,57.99,3.0
Thinadhoo,MV,1610622835,0.5333,72.9333,73,76,82.26,20.18
Qaanaaq,GL,1610622705,77.484,-69.3632,0,75,-1.62,4.65
Bathsheba,BB,1610622836,13.2167,-59.5167,40,73,78.8,14.97
Vanavara,RU,1610622836,60.34,102.2797,100,91,-2.6,13.29
Nurota,UZ,1610622837,40.5614,65.6886,0,25,62.6,11.5
Camocim,BR,1610622837,-2.9022,-40.8411,84,69,81.88,12.39
Puerto Ayora,EC,1610622837,-0.7393,-90.3518,69,97,73.0,5.99
Bograd,RU,1610622837,54.2344,90.8328,0,60,-0.4,8.95
Mar del Plata,AR,1610622838,-38.0023,-57.5575,0,68,66.99,11.5
Airai,TL,1610622838,-8.9266,125.4092,100,100,64.87,0.81
Ponta do Sol,PT,1610622838,32.6667,-17.1,40,67,60.01,13.8
Cidreira,BR,1610622839,-30.1811,-50.2056,65,66,72.23,14.97
Sosnovo-Ozerskoye,RU,1610622839,52.5249,111.5418,85,88,-15.97,8.66
Laguna,US,1610622839,38.421,-121.4238,1,82,52.0,6.91
Yellowknife,CA,1610622839,62.456,-114.3525,90,85,5.0,5.75
Bambous Virieux,MU,1610622839,-20.3428,57.7575,20,65,84.99,12.66
Chokurdakh,RU,1610622840,70.6333,147.9167,100,90,-12.91,8.19
Sitka,US,1610622840,57.0531,-135.33,90,70,41.0,12.66
Kaitangata,NZ,1610622840,-46.2817,169.8464,29,90,60.01,3.31
Nam Som,TH,1610622840,17.7704,102.1895,0,47,78.01,4.61
Fortuna,US,1610622841,40.5982,-124.1573,90,100,52.0,8.05
Sangar,RU,1610622841,63.9242,127.4739,3,76,-44.97,5.68
Dudinka,RU,1610622842,69.4058,86.1778,0,81,-37.14,9.84
Flin Flon,CA,1610622842,54.7682,-101.865,100,98,27.75,15.17
Acaraú,BR,1610622842,-2.8856,-40.12,96,71,81.63,13.91
Santa Maria,BR,1610622715,-29.6842,-53.8069,20,94,62.6,6.91
Atuona,PF,1610622705,-9.8,-139.0333,28,79,76.84,10.85
Ribeira Grande,PT,1610622707,38.5167,-28.7,75,94,62.6,10.36
Ilulissat,GL,1610622843,69.2167,-51.1,75,86,21.2,5.75
Bonavista,CA,1610622843,48.6499,-53.1147,51,100,32.0,2.3
Saldanha,ZA,1610622843,-33.0117,17.9442,0,47,82.4,11.5
Maun,BW,1610622843,-19.9833,23.4167,75,69,82.4,9.22
Iskateley,RU,1610622844,67.6803,53.1512,99,86,-9.06,12.26
Carberry,CA,1610622845,49.8689,-99.3602,90,93,32.0,11.5
Ahipara,NZ,1610622845,-35.1667,173.1667,12,90,63.7,7.47
Pontal do Paraná,BR,1610622845,-25.6533,-48.5128,98,99,66.0,8.25
Castro,BR,1610622707,-24.7911,-50.0119,96,89,67.24,11.23
Bara,NG,1610622845,10.3744,10.7288,0,23,86.0,17.27
Kapaa,US,1610622846,22.0752,-159.319,90,73,73.4,11.5
Ilebo,CD,1610622846,-4.3167,20.5833,95,49,88.43,5.17
Huarmey,PE,1610622846,-10.0681,-78.1522,100,89,69.85,6.82
Linjiang,CN,1610622846,41.8069,126.9078,95,86,12.94,2.1
Faya,SA,1610622847,18.3851,42.4509,20,42,68.0,9.22
Cap Malheureux,MU,1610622847,-19.9842,57.6142,27,67,84.99,7.0
Clyde River,CA,1610622847,70.4692,-68.5914,1,84,-7.6,6.91
Kawalu,ID,1610622847,-7.3817,108.2082,89,84,76.05,1.1
Bilma,NE,1610622848,18.6853,12.9164,28,21,77.36,10.67
Orlik,RU,1610622848,52.5178,99.825,94,76,-15.99,3.67
Hithadhoo,MV,1610622848,-0.6,73.0833,89,77,81.97,21.74
Xining,CN,1610622848,36.6167,101.7667,82,54,34.77,13.27
College,US,1610622849,64.8569,-147.8028,40,77,9.0,3.44
Avarua,CK,1610622849,-21.2078,-159.775,90,89,78.8,6.91
Marshall,US,1610622850,34.3834,-86.3333,1,93,34.0,4.61
Tuktoyaktuk,CA,1610622850,69.4541,-133.0374,19,88,-21.66,2.01
Narsaq,GL,1610622850,60.9167,-46.05,75,86,26.6,3.44
Quelimane,MZ,1610622850,-17.8786,36.8883,75,74,89.6,3.44
La Asuncion,VE,1610622850,11.0333,-63.8628,85,86,75.83,16.28
Annau,TM,1610622851,37.8876,58.516,0,62,53.6,4.61
Grandview,US,1610622668,38.8858,-94.533,1,61,48.99,17.27
Sandakan,MY,1610622851,5.8402,118.1179,40,100,77.0,4.5
Klyuchi,RU,1610622852,52.2667,79.1667,86,87,-18.45,5.86
Verkhnyaya Inta,RU,1610622852,65.9811,60.3094,82,87,-15.41,10.78
Praia,CV,1610622852,14.9215,-23.5087,75,57,75.2,25.32
Vostok,RU,1610622852,46.4856,135.8833,100,92,-4.97,4.36
Edd,ER,1610622853,13.9297,41.6925,0,34,86.9,19.62
Qaqortoq,GL,1610622853,60.7167,-46.0333,75,86,26.6,3.44
Newport,GB,1610622853,51.5877,-2.9984,99,85,50.0,4.0
Emba,KZ,1610622854,48.8264,58.1442,100,88,10.87,20.58
Amahai,ID,1610622854,-3.3333,128.9167,99,79,88.0,1.12
Taoudenni,ML,1610622854,22.6783,-3.9836,11,23,67.73,15.97
Torbay,CA,1610622854,47.6666,-52.7314,90,93,34.0,8.05
Wasco,US,1610622855,35.5941,-119.341,1,80,44.01,0.65
Riyadh,SA,1610622749,24.6877,46.7219,0,18,71.6,5.75
Losone,CH,1610622855,46.1687,8.7593,20,58,55.4,8.05
Saint-Augustin,CA,1610622855,51.226,-58.6502,100,95,22.12,5.3
Dingle,PH,1610622856,10.9995,122.6711,29,87,75.65,9.89
Dikson,RU,1610622856,73.5069,80.5464,0,79,-28.08,3.94
Chara,RU,1610622856,56.9064,118.2631,56,70,-25.2,1.43
Upernavik,GL,1610622856,72.7868,-56.1549,100,94,16.86,3.29
Pangnirtung,CA,1610622856,66.1451,-65.7125,100,75,-5.58,0.74
Makakilo City,US,1610622857,21.3469,-158.0858,1,78,73.4,4.61
San Cristobal,VE,1610622857,7.7669,-72.225,70,85,60.8,2.82
Kahului,US,1610622857,20.8947,-156.47,1,77,69.01,9.53
Esperance,AU,1610622857,-33.8667,121.9,54,52,64.4,23.02
Donnacona,CA,1610622857,46.6804,-71.7239,90,93,30.2,1.88
Goundam,ML,1610622858,16.4145,-3.6708,18,14,82.87,14.25
Kars,TR,1610622859,40.602,43.095,75,65,41.0,23.02
Stepnyak,KZ,1610622859,52.8339,70.7803,0,86,-9.15,4.65
La Ronge,CA,1610622859,55.1001,-105.2842,100,74,26.6,10.36
Danshui,CN,1610622859,22.7984,114.4672,22,49,63.0,4.21
Saint-Philippe,RE,1610622859,-21.3585,55.7679,75,66,87.8,9.22
Leningradskiy,RU,1610622860,69.3833,178.4167,100,92,1.31,11.27
Khasan,RU,1610622860,42.4308,130.6434,52,73,19.49,5.91
Chapada dos Guimarães,BR,1610622860,-15.4606,-55.7497,40,94,77.0,3.44
São Gabriel da Cachoeira,BR,1610622860,-0.1303,-67.0892,100,99,71.26,1.07
Pochutla,MX,1610622860,15.7432,-96.4661,29,81,66.99,2.51
São Félix do Xingu,BR,1610622861,-6.6447,-51.995,98,96,72.99,0.27
Bosaso,SO,1610622861,11.2842,49.1816,1,56,79.16,14.38
Yinchuan,CN,1610622744,38.4681,106.2731,56,69,31.14,10.27
Broken Hill,AU,1610622861,-31.95,141.4333,0,19,80.6,12.66
Sobolevo,RU,1610622862,54.4299,31.8996,96,94,8.56,8.39
Berlevåg,NO,1610622862,70.8578,29.0864,75,93,30.2,10.36
Aksarka,RU,1610622862,66.5606,67.7975,94,87,-3.78,12.48
Lüderitz,NA,1610622611,-26.6481,15.1594,90,67,71.11,13.02
Klaksvík,FO,1610622862,62.2266,-6.589,75,93,41.0,10.36
Lagoa,PT,1610622863,39.05,-27.9833,82,90,61.66,13.82
Ontario,US,1610622863,34.0633,-117.6509,20,40,60.8,5.75
Nishihara,JP,1610622863,26.1842,127.7558,75,55,64.4,4.61
Kismayo,SO,1610622863,-0.3582,42.5454,60,63,83.35,17.78
Yulara,AU,1610622864,-25.2406,130.9889,80,11,104.0,10.36
Jepara,ID,1610622864,-5.1695,105.7044,89,86,79.65,4.99
Raudeberg,NO,1610622864,61.9875,5.1352,0,69,28.99,9.22
Sulphur Springs,US,1610622864,33.1385,-95.6011,1,66,46.4,11.5
Codrington,AU,1610622865,-38.2667,141.9667,21,74,52.52,8.12
Arrondissement de Parthenay,FR,1610622865,46.6667,-0.4167,99,97,48.99,7.0
Barrow,US,1610622865,71.2906,-156.7887,1,77,-9.4,16.11
Shelburne,CA,1610622866,44.0787,-80.2041,100,100,33.01,3.36
Trindade,BR,1610622866,-16.6494,-49.4889,90,94,68.0,2.3
Portland,US,1610622573,45.5234,-122.6762,90,93,43.0,2.35
Hilo,US,1610622867,19.7297,-155.09,1,68,69.8,6.91
Ngunguru,NZ,1610622867,-35.6167,174.5,11,91,64.99,3.0
Nikolskoye,RU,1610622867,59.7035,30.7861,75,72,8.6,11.18
Katsuura,JP,1610622868,35.1333,140.3,0,71,50.0,4.61
Jiayuguan City,CN,1610622818,39.8167,98.3,99,74,22.06,5.32
Marquette,US,1610622874,46.5333,-87.6335,27,93,30.99,6.38
Pidigan,PH,1610622876,17.57,120.5903,75,69,78.8,4.61
Quesnel,CA,1610622876,52.9999,-122.5029,1,93,21.2,4.63
Port Augusta,AU,1610622707,-32.5,137.7667,0,68,64.4,20.71
Karligan,PH,1610622878,14.975,122.0456,100,83,77.65,18.92
Tilichiki,RU,1610622878,60.4667,166.1,0,85,-24.93,7.31
Madimba,TZ,1610622880,-10.4,40.3333,40,70,86.0,14.97
Alofi,NU,1610622829,-19.0595,-169.9187,97,94,77.0,4.61
Havre-St-Pierre,CA,1610622894,50.2334,-63.5986,40,93,17.6,6.91
Petropavlovsk-Kamchatskiy,RU,1610622752,53.0452,158.6483,48,60,-0.4,6.71
Fukuechō,JP,1610622932,32.6881,128.8419,40,87,46.4,1.14
Pevek,RU,1610622933,69.7008,170.3133,95,89,-13.68,1.36
Colac,AU,1610622933,-38.3333,143.5833,51,90,55.0,6.46
New Norfolk,AU,1610622933,-42.7826,147.0587,77,51,59.0,3.0
Half Moon Bay,US,1610622933,37.4636,-122.4286,1,82,57.99,8.05
Toamasina,MG,1610622934,-18.1667,49.3833,40,70,89.6,12.66
Departamento de Maldonado,UY,1610622934,-34.6667,-54.9167,0,82,66.99,5.75
Ballina,AU,1610622934,-28.8667,153.5667,0,78,73.4,6.91
Eldorado,BR,1610622934,-23.7869,-54.2836,97,85,75.04,10.78
Butaritari,KI,1610622935,3.0707,172.7902,58,82,81.09,18.95
Kotel,BG,1610622935,42.8833,26.45,75,48,39.2,4.61
Cam Ranh,VN,1610622707,11.9214,109.1591,20,60,75.2,12.66
Hasaki,JP,1610622936,35.7333,140.8333,20,70,42.8,2.3
Krasnyy Chikoy,RU,1610622936,50.3643,108.7512,100,85,-8.82,3.74
Zubtsov,RU,1610622936,56.1753,34.5894,100,92,2.55,10.47
North Myrtle Beach,US,1610622936,33.816,-78.68,75,100,43.0,4.61
Slave Lake,CA,1610622937,55.2834,-114.769,0,55,30.2,28.77
Phan Thiet,VN,1610622923,10.9333,108.1,0,79,71.64,8.61
Jatibonico,CU,1610622937,21.9419,-79.17,62,96,67.87,2.35
Longyearbyen,SJ,1610622937,78.2186,15.6401,75,68,24.8,14.97
Soubre,CI,1610622938,5.7856,-6.6083,80,57,86.56,3.24
Newtonmore,GB,1610622938,57.066,-4.1192,75,93,36.0,7.29
Cherskiy,RU,1610622938,68.75,161.3,69,85,-27.65,2.17
Padang,ID,1610622938,-0.9492,100.3543,40,74,84.2,2.06
Sioux Lookout,CA,1610622938,50.1001,-91.917,90,100,24.8,6.91
Sambava,MG,1610622939,-14.2667,50.1667,12,70,85.84,8.77
Benin,BJ,1610622939,9.5,2.25,0,10,91.76,8.08
Qian’an,CN,1610622815,44.9932,124.0581,100,92,2.26,6.15
Erenhot,CN,1610622939,43.6475,111.9767,97,95,9.03,13.67
Hervey Bay,AU,1610622856,-25.2986,152.8535,0,76,75.0,1.01
Kieta,PG,1610622940,-6.2167,155.6333,56,70,81.16,3.71
Poconé,BR,1610622940,-16.2567,-56.6228,100,88,76.98,1.81
Lékoni,GA,1610622940,-1.5843,14.2591,80,69,77.86,11.23
Itapora,BR,1610622940,-22.0799,-54.7874,100,92,73.45,7.74
Port Alfred,ZA,1610622941,-33.5906,26.891,95,81,76.57,21.39
Nhulunbuy,AU,1610622941,-12.2333,136.7667,57,89,82.4,4.9
Beloha,MG,1610622941,-25.1667,45.05,0,32,97.9,12.97
Kiryat Gat,IL,1610622941,31.61,34.7642,6,54,64.0,3.0
Dubti,ET,1610622941,11.7361,41.0853,0,20,89.74,14.0
Yichun,CN,1610622942,47.7,128.9,54,90,-10.23,2.06
Birjand,IR,1610622942,32.8663,59.2211,20,2,62.6,13.8
Frankfort,ZA,1610622942,-27.2667,28.4833,33,34,85.35,4.83
Bereda,ES,1610622942,43.2686,-7.5406,96,100,43.0,1.99
Camacha,PT,1610622942,33.0833,-16.3333,40,63,59.0,11.5
Katangli,RU,1610622943,51.7102,143.2326,100,92,-2.56,22.59
Sorong,ID,1610622943,-0.8833,131.25,100,80,82.89,8.32
Shellbrook,CA,1610622943,53.2168,-106.4011,90,80,26.6,18.41
Talen,IN,1610622944,23.5667,76.7167,0,18,76.89,6.71
Nome,US,1610622944,64.5011,-165.4064,99,86,17.6,8.05
Le Port,RE,1610622945,-20.9373,55.2919,90,78,80.6,9.22
Aklavik,CA,1610622945,68.2191,-135.0107,98,84,-14.8,5.82
Kavieng,PG,1610622705,-2.5744,150.7967,89,75,83.32,12.86
Yarim,YE,1610622945,14.298,44.3779,0,29,61.72,7.05
Saint Anthony,US,1610622945,45.0205,-93.218,1,93,33.01,3.44
La Paz,BO,1610622946,-16.5,-68.15,75,93,42.8,5.75
Oussouye,SN,1610622946,12.485,-16.5469,0,36,84.2,11.5
Agüimes,ES,1610622946,27.9054,-15.4461,40,63,66.2,12.66
Alyangula,AU,1610622946,-13.8483,136.4192,49,89,82.4,7.43
Lorengau,PG,1610622947,-2.0226,147.2712,78,74,83.07,8.97
Hofn,IS,1610622947,64.2539,-15.2082,90,93,37.4,4.61
Road Town,VG,1610622947,18.4167,-64.6167,40,83,78.8,10.36
Ixtapa,MX,1610622947,20.7,-105.2,100,46,65.1,2.53
Korla,CN,1610622947,41.7597,86.1469,29,78,25.48,7.05
Santa Lucía,ES,1610622948,27.9117,-15.5407,40,63,66.2,12.66
Bentiu,SS,1610622949,9.2333,29.8333,41,8,104.9,2.91
Sesheke,ZM,1610622949,-17.4759,24.2968,98,77,77.76,5.66
Resistencia,AR,1610622949,-27.4606,-58.9839,0,69,75.99,11.5
Ghanzi,BW,1610622949,-21.5667,21.7833,35,51,83.55,12.64
Zyryanovsk,KZ,1610622950,49.7386,84.2719,3,85,-18.33,0.58
Clifton,US,1610622950,40.8584,-74.1638,75,80,39.0,3.44
Sørland,NO,1610622950,67.667,12.6934,75,93,33.8,3.44
Illora,ES,1610622950,37.2877,-3.8811,0,75,44.01,2.57
Faanui,PF,1610622950,-16.4833,-151.75,74,78,80.8,15.99
Maple Creek,CA,1610622951,49.9168,-109.4848,0,53,21.2,12.66
Norman Wells,CA,1610622951,65.282,-126.8329,90,85,1.4,2.3
Nānākuli,US,1610622951,21.3906,-158.1547,1,78,73.0,4.61
Douentza,ML,1610622951,14.9951,-2.9517,25,11,87.48,7.67
Sittwe,MM,1610622801,20.15,92.9,55,52,76.51,13.67
Aranos,NA,1610622952,-24.1333,19.1167,37,42,85.95,11.68
Sur,OM,1610622952,22.5667,59.5289,0,45,74.61,13.13
Vasterhaninge,SE,1610622952,59.1167,18.1,100,69,30.0,14.83
Antalaha,MG,1610622952,-14.9003,50.2788,15,71,85.59,7.81
Gweta,BW,1610622953,-20.1833,25.2333,84,52,82.78,6.31
Ambon City,ID,1610622785,-3.6954,128.1814,40,84,84.2,4.61
Touros,BR,1610622953,-5.1989,-35.4608,75,78,80.6,12.66
Kalanguy,RU,1610622953,51.0167,116.5167,7,86,-22.43,0.76
Puri,IN,1610622954,19.8,85.85,40,54,82.4,1.14
Ko Samui,TH,1610622954,9.5357,99.9357,20,58,84.2,6.91
Mount Isa,AU,1610622954,-20.7333,139.5,3,27,91.4,4.61
Arrondissement de Mende,FR,1610622954,44.6667,3.5,89,96,32.7,14.14
Basco,PH,1610622954,20.4487,121.9702,47,72,71.46,17.0
Peniche,PT,1610622955,39.3558,-9.3811,70,65,52.0,8.01
Kununurra,AU,1610622955,-15.7667,128.7333,96,79,84.2,4.61
Chervona Sloboda,UA,1610622955,49.3789,32.1464,100,95,30.31,8.77
Marzuq,YE,1610622955,14.4,46.4667,4,20,74.17,6.44
Traverse City,US,1610622955,44.7631,-85.6206,90,80,35.6,5.32
Vao,NC,1610622956,-22.6667,167.4833,100,86,77.81,14.12
Nainpur,IN,1610622956,22.4333,80.1167,87,16,78.04,7.09
Margate,GB,1610622956,51.3813,1.3862,100,90,41.0,8.01
Nioro,GM,1610622956,13.35,-15.75,0,13,86.41,12.59
Port-Gentil,GA,1610622957,-0.7193,8.7815,40,70,86.0,9.22
Koundara,GN,1610622957,12.4833,-13.3,0,11,90.0,6.87
Filingué,NE,1610622957,14.3521,3.3168,0,12,88.34,14.14
Teguise,ES,1610622957,29.0605,-13.564,20,59,64.4,16.11
Dongling,CN,1610622957,41.8144,123.5758,0,36,26.6,6.71
Bend,US,1610622958,44.0582,-121.3153,50,76,34.0,7.49
Olenegorsk,RU,1610622958,68.15,33.3,96,90,-2.09,4.5
Duku,NG,1610622958,11.2361,4.9073,31,10,92.34,7.83
Margherita,IN,1610622959,27.2833,95.6833,75,77,68.0,0.83
Shingū,JP,1610622959,33.7333,135.9833,40,57,48.2,4.61
Plouzané,FR,1610622959,48.3833,-4.6167,90,87,50.0,19.57
Yenagoa,NG,1610622782,4.9247,6.2642,27,64,87.55,1.7
Yarmouth,US,1610622960,41.7057,-70.2286,90,86,37.0,5.44
Lesnikovo,RU,1610622960,55.2822,65.3175,0,86,-14.08,4.88
Kaeo,NZ,1610622960,-35.1,173.7833,13,91,64.99,3.0
Potosí,BO,1610622961,-19.5836,-65.7531,90,83,44.37,3.04
George Town,MY,1610622864,5.4112,100.3354,20,62,87.8,6.91
Balingasay,PH,1610622961,16.3573,119.8564,89,75,79.09,11.34
Melbu,NO,1610622961,68.5044,14.8297,75,93,32.0,3.44
Belfast,GB,1610622962,54.5833,-5.9333,20,87,46.0,13.8
Moree,AU,1610622962,-29.4667,149.85,13,39,82.4,5.75
Okha,RU,1610622962,53.5739,142.9478,100,87,-7.24,14.97
Black River,JM,1610622962,18.0264,-77.8487,20,83,72.0,4.61
Chotěšov,CZ,1610622963,49.6541,13.2027,90,75,34.0,2.3
Haftoni,AZ,1610622964,38.7632,48.7622,90,100,46.4,6.91
Mount Gambier,AU,1610622964,-37.8333,140.7667,90,63,59.0,12.66
Lata,PT,1610622964,40.1629,-8.3327,1,75,53.01,3.36
Shanghai,CN,1610622725,31.2222,121.4581,0,32,55.99,6.71
Agirish,RU,1610622965,61.9247,63.0231,0,87,-6.54,6.44
Samfya,ZM,1610622965,-11.3649,29.5565,74,78,75.06,8.93
Karpathos,GR,1610622965,35.507,27.2132,75,82,51.8,20.71
Muravlenko,RU,1610622966,63.7898,74.523,7,87,-4.18,17.9
Borodino,RU,1610622966,55.9106,94.8983,100,89,1.08,19.08
Tianpeng,CN,1610622966,30.9866,103.9393,0,1,51.01,3.33
Paraisópolis,BR,1610622966,-22.5542,-45.78,40,94,73.4,1.14
Quatre Cocos,MU,1610622966,-20.2078,57.7625,20,65,84.99,12.66
Bud,US,1610622967,39.447,-86.1758,91,90,30.99,8.55
Yining,CN,1610622725,29.0361,114.5636,0,46,53.38,2.89
Guerrero Negro,MX,1610622706,27.9769,-114.0611,0,54,52.86,1.92
Kerema,PG,1610622967,-7.9631,145.7785,86,77,82.15,1.59
Tamale,GH,1610622859,9.4008,-0.8393,25,10,92.98,9.13
Dongsheng,CN,1610622968,39.8161,109.9776,2,65,24.69,29.35
Ágfalva,HU,1610622968,47.6899,16.5166,90,100,32.0,17.27
Searcy,US,1610622968,35.2506,-91.7363,1,87,36.0,4.61
Meulaboh,ID,1610622968,4.1363,96.1285,63,66,81.79,3.74
Greenville,US,1610622969,35.6127,-77.3663,90,93,44.6,5.48
Bykovo,RU,1610622969,55.6361,38.0803,90,85,9.0,8.95
Sotnikovo,RU,1610622969,51.8845,107.4791,20,71,-7.6,3.56
Tura,IN,1610622969,25.5198,90.2201,2,46,64.11,3.2
Lapi,PH,1610622970,17.716,121.8978,99,85,70.65,4.52
Río Gallegos,AR,1610622970,-51.6226,-69.2181,75,54,55.4,8.05
Mitú,CO,1610622970,1.1983,-70.1733,100,99,70.83,2.04
Carnarvon,AU,1610622914,-24.8667,113.6333,5,69,82.4,18.41
Skjervøy,NO,1610622970,70.0311,20.9714,75,86,33.8,12.66
Tautira,PF,1610622971,-17.7333,-149.15,0,73,78.8,2.3
Camopi,GF,1610622971,3.1655,-52.3158,67,97,72.97,3.04
Talnakh,RU,1610622972,69.4865,88.3972,1,77,-33.75,4.45
Port Blair,IN,1610622972,11.6667,92.75,72,69,79.95,11.43
Inuvik,CA,1610622972,68.3499,-133.7218,100,84,-14.8,3.69
Kirillov,RU,1610622972,59.863,38.3813,90,77,-7.6,6.71
Paris,FR,1610622827,48.8534,2.3488,90,93,50.0,11.5
Zaliztsi,UA,1610622973,49.7919,25.373,100,96,27.9,7.67
Yangi Marg`ilon,UZ,1610622973,40.4272,71.7189,0,40,48.2,2.3
Praxédis Guerrero,MX,1610622973,31.3667,-106.0167,40,30,41.0,3.44
Namatanai,PG,1610622705,-3.6667,152.4333,95,77,80.89,8.68
Belaya Gora,RU,1610622974,68.5333,146.4167,100,86,-26.48,6.6
Aripuanã,BR,1610622974,-9.1667,-60.6333,100,99,73.09,1.01
San Luis,AR,1610622974,-33.295,-66.3356,7,57,72.9,8.9
Finschhafen,PG,1610622974,-6.6024,147.8681,97,78,83.28,14.85
Halmstad,SE,1610622974,56.6745,12.8568,75,74,34.0,14.97
Prince George,CA,1610622975,53.9166,-122.753,1,74,26.6,9.22
Tessalit,ML,1610622975,20.1986,1.0114,0,14,81.48,8.01
Takoradze,GH,1610622852,4.8845,-1.7554,25,67,85.03,5.84
Tanabe,JP,1610622975,33.7333,135.3667,40,57,48.2,4.61
Evensk,RU,1610622976,61.95,159.2333,7,72,-21.48,7.9
Labuhan,ID,1610622976,-6.8844,112.2051,99,80,81.09,6.2
Bulgan,MN,1610622976,48.8125,103.5347,24,83,-7.04,1.86
Birsk,RU,1610622976,55.4211,55.5428,99,92,10.38,9.51
Ostrovnoy,RU,1610622976,68.0531,39.5131,87,93,2.19,23.96
Romita,MX,1610622977,20.8667,-101.5167,75,46,51.8,0.76
Chingola,ZM,1610622977,-12.529,27.8838,100,90,70.88,8.48
Sitrah,BH,1610622977,26.1547,50.6206,0,28,69.8,8.05
Sungai Penuh,ID,1610622977,-2.0833,101.3833,100,92,69.39,0.83
Santa Marinella,IT,1610622978,42.0345,11.8536,30,85,51.01,12.57
Vengerovo,RU,1610622978,55.6848,76.7471,6,87,-16.47,8.21
Kiama,AU,1610622978,-34.6833,150.8667,40,89,73.0,3.0
Amuntai,ID,1610622978,-2.4177,115.2494,100,96,74.17,2.17
Turaif,SA,1610622978,31.6725,38.6637,75,100,50.0,6.91
Pacific Grove,US,1610622979,36.6177,-121.9166,1,87,59.0,9.22
Muborak,UZ,1610622979,39.2553,65.1528,0,39,55.58,3.69
Berbera,SO,1610622979,10.4396,45.0143,47,55,79.36,14.32
Denpasar,ID,1610622979,-8.65,115.2167,75,89,82.4,12.66
Storforshei,NO,1610622980,66.4043,14.5233,40,92,10.99,2.3
Kavaratti,IN,1610622980,10.5669,72.642,89,65,81.86,3.33
Buala,SB,1610622980,-8.145,159.5921,78,73,80.91,5.21
Saint-Pierre,RE,1610622750,-21.3393,55.4781,75,66,87.8,9.22
Yar-Sale,RU,1610622980,66.8333,70.8333,100,91,2.77,9.8
Gijang,KR,1610622981,35.2442,129.2139,20,60,41.0,4.61
Buraidah,SA,1610622981,26.326,43.975,40,49,71.6,6.91
Kattivākkam,IN,1610622981,13.2167,80.3167,40,70,84.2,13.8
Luena,AO,1610622983,-11.7833,19.9167,40,64,75.2,9.22
Snina,SK,1610622866,48.9886,22.151,99,85,30.0,1.03
Santoña,ES,1610622984,43.4439,-3.4576,40,66,51.8,9.22
Saint-François,FR,1610622984,46.4154,3.9054,90,87,46.4,13.8
Mankono,CI,1610622984,8.0586,-6.1897,9,33,95.23,1.83
Spokane,US,1610622984,47.6166,-117.3677,1,86,30.2,3.44
Graham,US,1610622985,47.0529,-122.2943,90,93,39.0,3.0
Constitución,CL,1610622985,-35.3333,-72.4167,0,48,55.62,3.62
Vitim,RU,1610622985,59.4511,112.5578,100,88,-3.93,14.05
Sayyan,YE,1610622986,15.1718,44.3244,10,25,65.35,5.14
Vila Franca do Campo,PT,1610622986,37.7167,-25.4333,75,94,62.01,11.5
Yuanping,CN,1610622774,38.7153,112.7575,80,71,30.51,1.79
Zhigalovo,RU,1610622986,54.8097,105.1578,100,87,-8.59,4.65
Norton,ZW,1610622986,-17.8833,30.7,79,77,73.0,7.0
Kushiro,JP,1610622976,42.975,144.3747,20,50,23.0,16.11
Raja,SS,1610622987,8.4596,25.678,12,11,94.96,7.05
São João da Barra,BR,1610622988,-21.6403,-41.0511,20,65,82.4,14.97
Houston,US,1610622807,29.7633,-95.3633,1,87,46.99,6.85
Soyo,AO,1610622988,-6.1349,12.3689,20,66,86.0,6.91
Ulladulla,AU,1610622988,-35.35,150.4667,90,83,68.0,10.36
Prince Rupert,CA,1610622989,54.3161,-130.3201,90,70,42.8,10.36
Hauterive,FR,1610622989,46.0901,3.4459,75,57,50.0,8.05
Lancaster,US,1610622989,40.2504,-76.2499,1,80,33.01,3.44
Dali,CN,1610622756,25.7,100.1833,75,56,47.57,3.13
Tarko-Sale,RU,1610622990,64.9225,77.785,99,93,1.08,15.12
Iqaluit,CA,1610622990,63.7506,-68.5145,1,69,-16.01,2.3
Cayenne,GF,1610622990,4.9333,-52.3333,90,100,77.0,2.3
Fairbanks,US,1610622990,64.8378,-147.7164,1,77,9.0,1.63
Kampot,KH,1610622771,10.6167,104.1833,0,65,78.8,9.22
Airdrie,GB,1610622991,55.866,-3.9803,90,93,37.0,2.3
Walvis Bay,NA,1610622991,-22.9575,14.5053,87,57,77.0,11.5
Cananéia,BR,1610622991,-25.0147,-47.9267,54,85,78.24,4.97
Wanning,CN,1610622863,18.8003,110.3967,15,72,63.73,6.58
Barra Patuca,HN,1610622991,15.8,-84.2833,88,88,74.68,7.56
Vestmanna,FO,1610622992,62.1564,-7.1664,75,93,41.0,10.36
Cockburn Town,TC,1610622992,21.4612,-71.1419,66,81,77.23,15.21
Sola,VU,1610622992,-13.8833,167.55,100,79,82.92,11.16
Lanzhou,CN,1610622925,36.0564,103.7922,0,34,30.2,6.71
Ca Mau,VN,1610622719,9.1769,105.15,54,74,75.61,6.85
Chicama,PE,1610622993,-7.8447,-79.1469,100,83,69.71,2.06
Soe,ID,1610622993,-9.8607,124.284,99,99,70.9,0.58
Bilwang,PH,1610622994,10.8834,124.4667,7,85,80.2,7.81
Ancud,CL,1610622994,-41.8697,-73.8203,0,93,51.01,2.3
Chone,EC,1610622994,-0.6833,-80.1,100,89,73.26,1.25
Zhuhai,CN,1610622994,22.2769,113.5678,0,82,62.6,6.91
Novikovo,RU,1610622994,51.1537,37.8879,94,96,20.73,6.87
Mathbaria,BD,1610622995,22.2876,89.9593,20,45,76.03,6.31
Manakara,MG,1610622995,-22.1333,48.0167,38,66,86.74,9.84
Amapá,BR,1610622995,1.0,-52.0,57,93,73.49,3.89
Las Vegas,US,1610622426,36.175,-115.1372,1,29,48.99,9.22
Te Anau,NZ,1610622996,-45.4167,167.7167,0,86,54.5,1.36
Ternate,ID,1610622996,0.8,127.4,100,78,82.49,7.74
Irati,BR,1610622996,-25.4672,-50.6511,100,82,66.4,5.86
Turkmenabat,TM,1610622996,39.0733,63.5786,0,29,60.8,9.22
Avera,US,1610622997,33.194,-82.5271,1,100,35.6,4.61
Zabaykal'sk,RU,1610622997,49.6333,117.3167,15,83,-13.23,4.0
Rawson,AR,1610622997,-43.3002,-65.1023,76,55,70.54,30.8
Port Lincoln,AU,1610622997,-34.7333,135.8667,20,70,58.53,14.2
Nanortalik,GL,1610622997,60.1432,-45.2371,100,95,26.65,7.81
Salinas,US,1610622998,36.6777,-121.6555,1,87,57.0,5.75
Flinders,AU,1610622998,-34.5833,150.8552,25,77,73.0,3.0
Kisanga,TZ,1610622998,-7.4362,37.7034,74,67,84.94,6.64
Bahía Blanca,AR,1610622998,-38.7196,-62.2724,47,22,72.73,17.81
Bandarbeyla,SO,1610622999,9.4942,50.8122,0,63,77.99,22.06
Santa Isabel,BR,1610622999,-23.3156,-46.2214,75,83,75.0,3.44
Oddur,SO,1610622999,4.1213,43.8894,0,19,91.76,18.5
Todos Santos,MX,1610622999,23.45,-110.2167,0,53,59.0,7.09
Prescott,US,1610622999,34.54,-112.4685,1,42,42.8,6.91
Cukai,MY,1610623000,4.25,103.4167,40,83,78.8,6.91
The Valley,AI,1610623001,18.217,-63.0578,40,83,77.0,11.5
Isangel,VU,1610623001,-19.55,169.2667,100,89,78.1,5.21
Aykhal,RU,1610623001,66.0,111.5,100,83,-27.15,6.73
Tual,ID,1610623001,-5.6667,132.75,100,74,83.86,8.05
Gull Lake,CA,1610623001,50.1001,-108.4847,1,74,23.0,28.77
Kailua,US,1610623002,21.4022,-157.7394,90,73,75.2,13.8
Beringovskiy,RU,1610623002,63.05,179.3167,42,86,-16.29,6.96
Saint George,US,1610623002,37.1041,-113.5841,1,40,30.2,4.61
Pak Chong,TH,1610622906,14.708,101.4161,7,37,84.0,4.38
Yeppoon,AU,1610623002,-23.1333,150.7333,18,69,77.0,2.3
Warragul,AU,1610622776,-38.1667,145.9333,0,81,55.99,4.0
Geraldton,AU,1610622993,-28.7667,114.6,46,65,78.8,17.27
Itarema,BR,1610623003,-2.9248,-39.9167,93,70,81.82,13.24
Weinan,CN,1610622829,34.5036,109.5089,0,34,50.0,4.47
Colina,BR,1610623004,-20.7133,-48.5408,100,97,69.73,5.66
Warmbad,NA,1610623004,-28.45,18.7333,13,30,93.34,5.37
Hoquiam,US,1610623004,46.9809,-123.8893,75,75,44.01,12.66
Paphos,CY,1610623004,34.7667,32.4167,75,63,60.8,17.27
Amazar,RU,1610623004,53.858,120.875,21,83,-18.56,1.77
Kondinskoye,RU,1610623005,59.6481,67.41,0,87,-13.09,7.07
Wajid,SO,1610623005,3.8093,43.2471,0,19,93.94,14.79
Oxford,GB,1610622989,51.7522,-1.256,75,100,50.0,6.91
Stara Syniava,UA,1610623005,49.6032,27.6191,100,96,28.27,8.01
Nuevo Progreso,MX,1610623006,23.1667,-97.95,78,87,60.01,1.99
Nevesinje,BA,1610623006,43.2586,18.1133,90,69,33.8,1.14
Qasigiannguit,GL,1610623006,68.8193,-51.1922,75,86,21.2,5.75
Anchorage,US,1610623007,61.2181,-149.9003,40,79,26.01,5.53
Biak,ID,1610623007,-0.9131,122.8766,26,78,79.74,1.9
San Quintín,MX,1610623007,30.4833,-115.95,36,52,57.24,3.27
Birin,NP,1610623007,26.8865,88.0718,0,56,51.6,3.47
Kosino,RU,1610623007,58.4127,51.2782,100,93,5.49,12.59
Abnūb,EG,1610623008,27.2696,31.1511,0,45,64.4,12.66
Isoka,ZM,1610623008,-10.1606,32.6335,99,79,72.66,5.37
Mumbwa,ZM,1610623008,-14.9783,27.0619,100,88,73.78,9.62
Frolovo,RU,1610623008,49.7713,43.6622,100,94,32.0,9.75
Ulaangom,MN,1610623008,49.9811,92.0667,100,90,-5.57,0.72
Ushibukamachi,JP,1610622876,32.1906,130.0228,56,63,54.52,3.27
Porto Nacional,BR,1610623009,-10.7081,-48.4172,75,89,78.8,2.3
Richards Bay,ZA,1610623009,-28.783,32.0377,58,56,88.02,12.97
Tutóia,BR,1610623010,-2.7619,-42.2744,32,79,80.69,12.71
Henties Bay,NA,1610623010,-22.116,14.2845,47,72,70.57,11.03
Tabas,IR,1610623010,33.5959,56.9244,0,15,57.2,2.3
Berbérati,CF,1610623011,4.2612,15.7922,0,57,82.4,18.41
Khovd,MN,1610622830,48.0056,91.6419,84,79,3.52,3.27
Lamas,PE,1610623011,-6.4167,-76.5333,97,99,64.08,1.28
Yaan,NG,1610623011,7.3833,8.5667,7,29,94.21,4.32
Mahibadhoo,MV,1610622903,3.7833,72.9667,66,78,81.73,14.29
Waddān,LY,1610623012,29.1614,16.139,0,46,57.81,9.17
Nishifukuma,JP,1610623012,33.7667,130.4667,0,81,48.2,3.44
Kjøllefjord,NO,1610623012,70.9457,27.3465,75,86,33.8,5.75
Bubaque,GW,1610623012,11.2833,-15.8333,0,46,76.05,14.97
Santa Rosa,PH,1610623013,14.3122,121.1114,75,78,80.6,5.75
Charters Towers,AU,1610623013,-20.1,146.2667,100,78,76.06,13.65
Pozhva,RU,1610623013,59.0912,56.0847,99,92,-3.15,5.46
Ende,ID,1610623013,-8.8432,121.6623,100,74,82.0,2.91
Frontera,MX,1610623013,26.9333,-101.45,0,39,54.03,11.21
Snåase,NO,1610623014,64.2457,12.3778,20,85,8.6,14.97
Robertsport,LR,1610623014,6.7533,-11.3686,56,75,81.99,4.27
Viedma,AR,1610623015,-40.8135,-62.9967,100,52,70.0,5.01
Sigli,ID,1610623015,5.3848,95.9609,100,84,78.75,9.73
Abapó,BO,1610623015,-18.8333,-63.4667,67,100,66.54,1.36
Ishigaki,JP,1610622859,24.3448,124.1572,0,63,66.2,16.11
Vanimo,PG,1610623016,-2.6741,141.3028,90,83,80.76,7.34
Stornoway,GB,1610623016,58.2093,-6.3865,75,87,46.4,14.97
Tokur,RU,1610623016,53.1333,132.9,96,89,-22.49,2.8
Kushima,JP,1610622907,31.4583,131.2333,40,66,50.0,3.44
Burgeo,CA,1610623017,47.6167,-57.6152,100,93,29.25,7.0
Safaga,EG,1610623017,26.7292,33.9365,0,30,68.0,18.41
Villazón,BO,1610623017,-22.0866,-65.5942,96,84,49.3,3.94
Bafoussam,CM,1610623017,5.4737,10.4179,0,17,86.23,3.56
Mae Sai,TH,1610623017,20.4335,99.8762,20,56,72.0,0.89
Escuinapa,MX,1610623018,22.85,-105.8,1,93,48.2,2.95
Najrān,SA,1610622914,17.4924,44.1277,0,25,73.4,4.61
Yagodnoye,RU,1610623018,62.55,149.6667,100,84,-20.76,2.08
Vila Velha,BR,1610623018,-20.3297,-40.2925,20,74,84.0,5.75
Verkhnyaya Salda,RU,1610623018,58.0456,60.5533,24,91,-3.23,5.03
Roald,NO,1610623019,62.5833,6.1333,0,69,28.4,6.91
Morón,AR,1610623019,-34.6534,-58.6198,0,59,72.0,8.01
Alice Springs,AU,1610622908,-23.7,133.8833,23,15,96.8,8.05
Mauá,BR,1610623019,-23.6678,-46.4614,75,78,75.0,5.75
Villa Bruzual,VE,1610623020,9.3328,-69.1208,51,85,68.79,2.98
Prymors'k,UA,1610623020,46.7348,36.3443,26,82,34.48,5.37
Mafeteng,LS,1610623020,-29.823,27.2374,75,64,73.4,6.91
Tacna,PE,1610623020,-18.0056,-70.2483,0,68,68.0,5.75
South Venice,US,1610623020,27.0531,-82.4243,90,94,55.0,6.91
Grand-Santi,GF,1610623021,4.25,-54.3833,73,96,72.28,1.9
Samarai,PG,1610623021,-10.6167,150.6667,96,76,83.61,1.9
Visby,SE,1610623021,57.6409,18.296,75,80,32.0,18.41
Pisco,PE,1610623021,-13.7,-76.2167,20,82,66.2,4.61
Hambantota,LK,1610622927,6.1241,81.1185,90,100,78.8,3.44
Carlyle,US,1610623022,38.6103,-89.3726,60,83,37.0,3.0
Swarzędz,PL,1610623022,52.4129,17.085,40,93,33.01,6.91
Puerto Guzmán,CO,1610623022,0.9703,-76.5858,91,77,68.97,2.93
São Filipe,CV,1610623022,14.8961,-24.4956,90,68,73.2,12.59
Harper,LR,1610623023,4.375,-7.7169,97,72,82.81,6.62
Calama,CL,1610623023,-22.4667,-68.9333,0,28,53.6,13.8
Hīt,IQ,1610623023,33.6416,42.8251,100,30,63.75,4.92
Solginskiy,RU,1610623023,61.05,41.3428,100,88,-13.05,7.87
Alvarães,BR,1610623024,-3.2208,-64.8042,90,94,77.0,2.3
Santiago,CL,1610623024,-33.4569,-70.6483,0,58,66.0,1.34
Trelew,AR,1610623024,-43.249,-65.3051,79,52,71.87,29.59
Serchhīp,IN,1610623024,23.3,92.8333,40,68,68.0,3.44
Turan,VN,1610622821,16.0678,108.2208,75,73,68.0,3.44
Dilijan,AM,1610623025,40.741,44.8636,64,56,46.62,7.87
Champerico,GT,1610623025,14.3,-91.9167,0,95,57.99,1.99
Bridlington,GB,1610623025,54.0831,-0.1919,100,87,37.0,8.01
Hamilton,US,1610623025,39.1834,-84.5333,20,80,34.0,10.36
Egvekinot,RU,1610623026,66.3167,-179.1667,100,91,-6.14,10.71
